

[
  {
    "type": "Feature",
    "geometry": {
      "type": "Point",
      "coordinates": [
        8.785285949707,
        44.424953669331
      ]
    },
    "properties": {
      "title": "Porto di Voltri",
      "description": "Posti Totali: <br><br>Posti Transito: ",
      "marker-color": "#fc4353",
      "marker-size": "large",
      "marker-symbol": "monument"
    },
    "id": 1
  },
  {
    "type": "Feature",
    "geometry": {
      "type": "Point",
      "coordinates": [
        8.8350677490234,
        44.418333162117
      ]
    },
    "properties": {
      "title": "Porto di Sestri Ponente",
      "description": "Posti Totali: 1200<br><br>Posti Transito: ",
      "marker-color": "#fc4353",
      "marker-size": "large",
      "marker-symbol": "monument"
    },
    "id": 2
  },
  {
    "type": "Feature",
    "geometry": {
      "type": "Point",
      "coordinates": [
        8.9248466491699,
        44.409933847417
      ]
    },
    "properties": {
      "title": "Porto di Marina Molo Vecchio Genova",
      "description": "Posti Totali: 160<br><br>Posti Transito: ",
      "marker-color": "#fc4353",
      "marker-size": "large",
      "marker-symbol": "monument"
    },
    "id": 3
  },
  {
    "type": "Feature",
    "geometry": {
      "type": "Point",
      "coordinates": [
        9.0319848060608,
        44.382919116408
      ]
    },
    "properties": {
      "title": "Porto di Nervi",
      "description": "Posti Totali: <br><br>Posti Transito: ",
      "marker-color": "#fc4353",
      "marker-size": "large",
      "marker-symbol": "monument"
    },
    "id": 4
  },
  {
    "type": "Feature",
    "geometry": {
      "type": "Point",
      "coordinates": [
        9.1411399841309,
        44.360187648884
      ]
    },
    "properties": {
      "title": "Porto di Recco",
      "description": "Posti Totali: <br><br>Posti Transito: ",
      "marker-color": "#fc4353",
      "marker-size": "large",
      "marker-symbol": "monument"
    },
    "id": 5
  },
  {
    "type": "Feature",
    "geometry": {
      "type": "Point",
      "coordinates": [
        9.1504955291748,
        44.351595863699
      ]
    },
    "properties": {
      "title": "Porto di Camogli",
      "description": "Posti Totali: 200<br><br>Posti Transito: 5",
      "marker-color": "#fc4353",
      "marker-size": "large",
      "marker-symbol": "monument"
    },
    "id": 6
  },
  {
    "type": "Feature",
    "geometry": {
      "type": "Point",
      "coordinates": [
        9.211220741272,
        44.302782910624
      ]
    },
    "properties": {
      "title": "Porto di Portofino",
      "description": "Posti Totali: 260<br><br>Posti Transito: ",
      "marker-color": "#fc4353",
      "marker-size": "large",
      "marker-symbol": "monument"
    },
    "id": 7
  },
  {
    "type": "Feature",
    "geometry": {
      "type": "Point",
      "coordinates": [
        9.2145681381226,
        44.330295079815
      ]
    },
    "properties": {
      "title": "Porto di Santa Margherita Ligure",
      "description": "Posti Totali: 350<br><br>Posti Transito: ",
      "marker-color": "#fc4353",
      "marker-size": "large",
      "marker-symbol": "monument"
    },
    "id": 8
  },
  {
    "type": "Feature",
    "geometry": {
      "type": "Point",
      "coordinates": [
        9.2326784133911,
        44.346163978203
      ]
    },
    "properties": {
      "title": "Porto di Rapallo - Carlo Riva",
      "description": "Posti Totali: 400<br><br>Posti Transito: ",
      "marker-color": "#fc4353",
      "marker-size": "large",
      "marker-symbol": "monument"
    },
    "id": 9
  },
  {
    "type": "Feature",
    "geometry": {
      "type": "Point",
      "coordinates": [
        9.3218564987183,
        44.312518043236
      ]
    },
    "properties": {
      "title": "Porto di Chiavari",
      "description": "Posti Totali: 469<br><br>Posti Transito: 35",
      "marker-color": "#fc4353",
      "marker-size": "large",
      "marker-symbol": "monument"
    },
    "id": 10
  },
  {
    "type": "Feature",
    "geometry": {
      "type": "Point",
      "coordinates": [
        9.3375635147095,
        44.307097892596
      ]
    },
    "properties": {
      "title": "Porto di Lavagna",
      "description": "Posti Totali: 1400<br><br>Posti Transito: 140",
      "marker-color": "#fc4353",
      "marker-size": "large",
      "marker-symbol": "monument"
    },
    "id": 11
  },
  {
    "type": "Feature",
    "geometry": {
      "type": "Point",
      "coordinates": [
        9.3887615203857,
        44.26868186638
      ]
    },
    "properties": {
      "title": "Porto di Sestri Levante",
      "description": "Posti Totali: 150<br><br>Posti Transito: 6",
      "marker-color": "#fc4353",
      "marker-size": "large",
      "marker-symbol": "monument"
    },
    "id": 12
  },
  {
    "type": "Feature",
    "geometry": {
      "type": "Point",
      "coordinates": [
        9.6065139770508,
        44.168784200723
      ]
    },
    "properties": {
      "title": "Porto di Levanto",
      "description": "Posti Totali: 60<br><br>Posti Transito: ",
      "marker-color": "#fc4353",
      "marker-size": "large",
      "marker-symbol": "monument"
    },
    "id": 13
  },
  {
    "type": "Feature",
    "geometry": {
      "type": "Point",
      "coordinates": [
        9.6815299987793,
        44.135344648238
      ]
    },
    "properties": {
      "title": "Porto di Vernazza",
      "description": "Posti Totali: <br><br>Posti Transito: ",
      "marker-color": "#fc4353",
      "marker-size": "large",
      "marker-symbol": "monument"
    },
    "id": 14
  },
  {
    "type": "Feature",
    "geometry": {
      "type": "Point",
      "coordinates": [
        9.8357248306274,
        44.050907198108
      ]
    },
    "properties": {
      "title": "Porto di Portovenere",
      "description": "Posti Totali: 32<br><br>Posti Transito: 6",
      "marker-color": "#fc4353",
      "marker-size": "large",
      "marker-symbol": "monument"
    },
    "id": 15
  },
  {
    "type": "Feature",
    "geometry": {
      "type": "Point",
      "coordinates": [
        9.8385143280029,
        44.067946175451
      ]
    },
    "properties": {
      "title": "Porto di Le Grazie",
      "description": "Posti Totali: 15<br><br>Posti Transito: ",
      "marker-color": "#fc4353",
      "marker-size": "large",
      "marker-symbol": "monument"
    },
    "id": 16
  },
  {
    "type": "Feature",
    "geometry": {
      "type": "Point",
      "coordinates": [
        9.8293304443359,
        44.080309855448
      ]
    },
    "properties": {
      "title": "Porto di Marina del Fezzano",
      "description": "Posti Totali: 250<br><br>Posti Transito: ",
      "marker-color": "#fc4353",
      "marker-size": "large",
      "marker-symbol": "monument"
    },
    "id": 17
  },
  {
    "type": "Feature",
    "geometry": {
      "type": "Point",
      "coordinates": [
        9.8598861694336,
        44.096708556433
      ]
    },
    "properties": {
      "title": "Porto di Porto Lotti La Spezia",
      "description": "Posti Totali: 516<br><br>Posti Transito: ",
      "marker-color": "#fc4353",
      "marker-size": "large",
      "marker-symbol": "monument"
    },
    "id": 18
  },
  {
    "type": "Feature",
    "geometry": {
      "type": "Point",
      "coordinates": [
        9.9077796936035,
        44.074945383864
      ]
    },
    "properties": {
      "title": "Porto di Lerici",
      "description": "Posti Totali: 1300<br><br>Posti Transito: 8",
      "marker-color": "#fc4353",
      "marker-size": "large",
      "marker-symbol": "monument"
    },
    "id": 19
  },
  {
    "type": "Feature",
    "geometry": {
      "type": "Point",
      "coordinates": [
        9.9830532073975,
        44.05144696942
      ]
    },
    "properties": {
      "title": "Porto di Bocca di Magra/Sarzana Marina",
      "description": "Posti Totali: <br><br>Posti Transito: ",
      "marker-color": "#fc4353",
      "marker-size": "large",
      "marker-symbol": "monument"
    },
    "id": 20
  },
  {
    "type": "Feature",
    "geometry": {
      "type": "Point",
      "coordinates": [
        8.9235591888428,
        44.411282723786
      ]
    },
    "properties": {
      "title": "Porto di Marina di Porto Antico Genova",
      "description": "Posti Totali: 280<br><br>Posti Transito: ",
      "marker-color": "#fc4353",
      "marker-size": "large",
      "marker-symbol": "monument"
    },
    "id": 21
  },
  {
    "type": "Feature",
    "geometry": {
      "type": "Point",
      "coordinates": [
        8.6872673034668,
        44.399203041094
      ]
    },
    "properties": {
      "title": "Porto di Arenzano",
      "description": "Posti Totali: 185<br><br>Posti Transito: ",
      "marker-color": "#fc4353",
      "marker-size": "large",
      "marker-symbol": "monument"
    },
    "id": 22
  },
  {
    "type": "Feature",
    "geometry": {
      "type": "Point",
      "coordinates": [
        8.5674476623535,
        44.353314321515
      ]
    },
    "properties": {
      "title": "Porto di Varazze",
      "description": "Posti Totali: 710<br><br>Posti Transito: ",
      "marker-color": "#fc4353",
      "marker-size": "large",
      "marker-symbol": "monument"
    },
    "id": 23
  },
  {
    "type": "Feature",
    "geometry": {
      "type": "Point",
      "coordinates": [
        8.5430717468262,
        44.337478053273
      ]
    },
    "properties": {
      "title": "Porto di Celle Ligure",
      "description": "Posti Totali: 80<br><br>Posti Transito: 8",
      "marker-color": "#fc4353",
      "marker-size": "large",
      "marker-symbol": "monument"
    },
    "id": 24
  },
  {
    "type": "Feature",
    "geometry": {
      "type": "Point",
      "coordinates": [
        8.4944915771484,
        44.315373785279
      ]
    },
    "properties": {
      "title": "Porto di Savona",
      "description": "Posti Totali: 530<br><br>Posti Transito: ",
      "marker-color": "#fc4353",
      "marker-size": "large",
      "marker-symbol": "monument"
    },
    "id": 25
  },
  {
    "type": "Feature",
    "geometry": {
      "type": "Point",
      "coordinates": [
        8.45046043396,
        44.268436021236
      ]
    },
    "properties": {
      "title": "Porto di Vado Ligure",
      "description": "Posti Totali: 102<br><br>Posti Transito: ",
      "marker-color": "#fc4353",
      "marker-size": "large",
      "marker-symbol": "monument"
    },
    "id": 26
  },
  {
    "type": "Feature",
    "geometry": {
      "type": "Point",
      "coordinates": [
        8.3699512481689,
        44.174940431699
      ]
    },
    "properties": {
      "title": "Porto di Finale Ligure",
      "description": "Posti Totali: 548<br><br>Posti Transito: 12",
      "marker-color": "#fc4353",
      "marker-size": "large",
      "marker-symbol": "monument"
    },
    "id": 27
  },
  {
    "type": "Feature",
    "geometry": {
      "type": "Point",
      "coordinates": [
        8.2683706283569,
        44.134543837398
      ]
    },
    "properties": {
      "title": "Porto di Loano - Porto Bello",
      "description": "Posti Totali: 474<br><br>Posti Transito: ",
      "marker-color": "#fc4353",
      "marker-size": "large",
      "marker-symbol": "monument"
    },
    "id": 28
  },
  {
    "type": "Feature",
    "geometry": {
      "type": "Point",
      "coordinates": [
        8.2248115539551,
        44.027183246829
      ]
    },
    "properties": {
      "title": "Porto di Isola della Gallinara",
      "description": "Posti Totali: <br><br>Posti Transito: ",
      "marker-color": "#fc4353",
      "marker-size": "large",
      "marker-symbol": "monument"
    },
    "id": 29
  },
  {
    "type": "Feature",
    "geometry": {
      "type": "Point",
      "coordinates": [
        8.1933975219727,
        44.018589069709
      ]
    },
    "properties": {
      "title": "Porto di Alassio",
      "description": "Posti Totali: 550<br><br>Posti Transito: ",
      "marker-color": "#fc4353",
      "marker-size": "large",
      "marker-symbol": "monument"
    },
    "id": 30
  },
  {
    "type": "Feature",
    "geometry": {
      "type": "Point",
      "coordinates": [
        8.1568765640259,
        43.950995767067
      ]
    },
    "properties": {
      "title": "Porto di Marina di Andora",
      "description": "Posti Totali: 865<br><br>Posti Transito: 56",
      "marker-color": "#fc4353",
      "marker-size": "large",
      "marker-symbol": "monument"
    },
    "id": 31
  },
  {
    "type": "Feature",
    "geometry": {
      "type": "Point",
      "coordinates": [
        8.1062793731689,
        43.920277008597
      ]
    },
    "properties": {
      "title": "Porto di San Bartolomeo al Mare",
      "description": "Posti Totali: 170<br><br>Posti Transito: ",
      "marker-color": "#fc4353",
      "marker-size": "large",
      "marker-symbol": "monument"
    },
    "id": 32
  },
  {
    "type": "Feature",
    "geometry": {
      "type": "Point",
      "coordinates": [
        8.0851221084595,
        43.908900244072
      ]
    },
    "properties": {
      "title": "Porto di Diano Marina",
      "description": "Posti Totali: 250<br><br>Posti Transito: 10",
      "marker-color": "#fc4353",
      "marker-size": "large",
      "marker-symbol": "monument"
    },
    "id": 33
  },
  {
    "type": "Feature",
    "geometry": {
      "type": "Point",
      "coordinates": [
        8.0429363250732,
        43.886480418038
      ]
    },
    "properties": {
      "title": "Porto di Imperia Oneglia",
      "description": "Posti Totali: <br><br>Posti Transito: ",
      "marker-color": "#fc4353",
      "marker-size": "large",
      "marker-symbol": "monument"
    },
    "id": 34
  },
  {
    "type": "Feature",
    "geometry": {
      "type": "Point",
      "coordinates": [
        8.0212640762329,
        43.878283478395
      ]
    },
    "properties": {
      "title": "Porto di Imperia Porto Maurizio",
      "description": "Posti Totali: 700<br><br>Posti Transito: ",
      "marker-color": "#fc4353",
      "marker-size": "large",
      "marker-symbol": "monument"
    },
    "id": 35
  },
  {
    "type": "Feature",
    "geometry": {
      "type": "Point",
      "coordinates": [
        7.966890335083,
        43.853376424496
      ]
    },
    "properties": {
      "title": "Porto di San Lorenzo al Mare",
      "description": "Posti Totali: 100<br><br>Posti Transito: ",
      "marker-color": "#fc4353",
      "marker-size": "large",
      "marker-symbol": "monument"
    },
    "id": 36
  },
  {
    "type": "Feature",
    "geometry": {
      "type": "Point",
      "coordinates": [
        7.9137182235718,
        43.838829606104
      ]
    },
    "properties": {
      "title": "Porto di Marina degli Aregai",
      "description": "Posti Totali: 989<br><br>Posti Transito: ",
      "marker-color": "#fc4353",
      "marker-size": "large",
      "marker-symbol": "monument"
    },
    "id": 37
  },
  {
    "type": "Feature",
    "geometry": {
      "type": "Point",
      "coordinates": [
        7.8587007522583,
        43.832359775049
      ]
    },
    "properties": {
      "title": "Porto di Arma di Taggia",
      "description": "Posti Totali: 125<br><br>Posti Transito: ",
      "marker-color": "#fc4353",
      "marker-size": "large",
      "marker-symbol": "monument"
    },
    "id": 38
  },
  {
    "type": "Feature",
    "geometry": {
      "type": "Point",
      "coordinates": [
        7.7856159210205,
        43.816662102673
      ]
    },
    "properties": {
      "title": "Porto di San Remo Portosole",
      "description": "Posti Totali: 806<br><br>Posti Transito: ",
      "marker-color": "#fc4353",
      "marker-size": "large",
      "marker-symbol": "monument"
    },
    "id": 39
  },
  {
    "type": "Feature",
    "geometry": {
      "type": "Point",
      "coordinates": [
        7.7414131164551,
        43.797800861709
      ]
    },
    "properties": {
      "title": "Porto di Capo Pino",
      "description": "Posti Totali: 20<br><br>Posti Transito: ",
      "marker-color": "#fc4353",
      "marker-size": "large",
      "marker-symbol": "monument"
    },
    "id": 40
  },
  {
    "type": "Feature",
    "geometry": {
      "type": "Point",
      "coordinates": [
        7.6765251159668,
        43.780142087752
      ]
    },
    "properties": {
      "title": "Porto di Bordighera",
      "description": "Posti Totali: 210<br><br>Posti Transito: ",
      "marker-color": "#fc4353",
      "marker-size": "large",
      "marker-symbol": "monument"
    },
    "id": 41
  },
  {
    "type": "Feature",
    "geometry": {
      "type": "Point",
      "coordinates": [
        10.040645599365,
        44.032567473385
      ]
    },
    "properties": {
      "title": "Porto di Marina di Carrara",
      "description": "Posti Totali: 190<br><br>Posti Transito: ",
      "marker-color": "#fc4353",
      "marker-size": "large",
      "marker-symbol": "monument"
    },
    "id": 42
  },
  {
    "type": "Feature",
    "geometry": {
      "type": "Point",
      "coordinates": [
        10.140337944031,
        43.976664964542
      ]
    },
    "properties": {
      "title": "Porto di Cinquale",
      "description": "Posti Totali: 240<br><br>Posti Transito: 18",
      "marker-color": "#fc4353",
      "marker-size": "large",
      "marker-symbol": "monument"
    },
    "id": 43
  },
  {
    "type": "Feature",
    "geometry": {
      "type": "Point",
      "coordinates": [
        10.238656997681,
        43.861391133876
      ]
    },
    "properties": {
      "title": "Porto di Viareggio",
      "description": "Posti Totali: 2000<br><br>Posti Transito: 80",
      "marker-color": "#fc4353",
      "marker-size": "large",
      "marker-symbol": "monument"
    },
    "id": 44
  },
  {
    "type": "Feature",
    "geometry": {
      "type": "Point",
      "coordinates": [
        10.296764373779,
        43.549419034789
      ]
    },
    "properties": {
      "title": "Porto di Livorno",
      "description": "Posti Totali: 120<br><br>Posti Transito: ",
      "marker-color": "#fc4353",
      "marker-size": "large",
      "marker-symbol": "monument"
    },
    "id": 45
  },
  {
    "type": "Feature",
    "geometry": {
      "type": "Point",
      "coordinates": [
        10.315432548523,
        43.517046426447
      ]
    },
    "properties": {
      "title": "Porto di Ardenza",
      "description": "Posti Totali: 266<br><br>Posti Transito: 30",
      "marker-color": "#fc4353",
      "marker-size": "large",
      "marker-symbol": "monument"
    },
    "id": 46
  },
  {
    "type": "Feature",
    "geometry": {
      "type": "Point",
      "coordinates": [
        10.32208442688,
        43.49616068892
      ]
    },
    "properties": {
      "title": "Porto di Antignano",
      "description": "Posti Totali: 240<br><br>Posti Transito: ",
      "marker-color": "#fc4353",
      "marker-size": "large",
      "marker-symbol": "monument"
    },
    "id": 47
  },
  {
    "type": "Feature",
    "geometry": {
      "type": "Point",
      "coordinates": [
        10.35813331604,
        43.461088466308
      ]
    },
    "properties": {
      "title": "Porto di Castel Sonnino",
      "description": "Posti Totali: <br><br>Posti Transito: ",
      "marker-color": "#fc4353",
      "marker-size": "large",
      "marker-symbol": "monument"
    },
    "id": 48
  },
  {
    "type": "Feature",
    "geometry": {
      "type": "Point",
      "coordinates": [
        10.362811088562,
        43.458573071999
      ]
    },
    "properties": {
      "title": "Porto di Quercianella",
      "description": "Posti Totali: <br><br>Posti Transito: ",
      "marker-color": "#fc4353",
      "marker-size": "large",
      "marker-symbol": "monument"
    },
    "id": 49
  },
  {
    "type": "Feature",
    "geometry": {
      "type": "Point",
      "coordinates": [
        10.425360202789,
        43.394617346953
      ]
    },
    "properties": {
      "title": "Porto di Castiglioncello - Cala de' Medici",
      "description": "Posti Totali: 650<br><br>Posti Transito: ",
      "marker-color": "#fc4353",
      "marker-size": "large",
      "marker-symbol": "monument"
    },
    "id": 50
  },
  {
    "type": "Feature",
    "geometry": {
      "type": "Point",
      "coordinates": [
        10.449779033661,
        43.349602168917
      ]
    },
    "properties": {
      "title": "Porto di Marina di Vada",
      "description": "Posti Totali: 270<br><br>Posti Transito: ",
      "marker-color": "#fc4353",
      "marker-size": "large",
      "marker-symbol": "monument"
    },
    "id": 51
  },
  {
    "type": "Feature",
    "geometry": {
      "type": "Point",
      "coordinates": [
        10.53633928299,
        43.100732198376
      ]
    },
    "properties": {
      "title": "Porto di San Vincenzo",
      "description": "Posti Totali: 350<br><br>Posti Transito: ",
      "marker-color": "#fc4353",
      "marker-size": "large",
      "marker-symbol": "monument"
    },
    "id": 52
  },
  {
    "type": "Feature",
    "geometry": {
      "type": "Point",
      "coordinates": [
        10.508422851562,
        42.996612318421
      ]
    },
    "properties": {
      "title": "Porto di Porto Baratti",
      "description": "Posti Totali: <br><br>Posti Transito: ",
      "marker-color": "#fc4353",
      "marker-size": "large",
      "marker-symbol": "monument"
    },
    "id": 53
  },
  {
    "type": "Feature",
    "geometry": {
      "type": "Point",
      "coordinates": [
        10.507049560547,
        42.930976328817
      ]
    },
    "properties": {
      "title": "Porto di Marina di Salivoli",
      "description": "Posti Totali: 488<br><br>Posti Transito: ",
      "marker-color": "#fc4353",
      "marker-size": "large",
      "marker-symbol": "monument"
    },
    "id": 54
  },
  {
    "type": "Feature",
    "geometry": {
      "type": "Point",
      "coordinates": [
        10.547561645508,
        42.932170335467
      ]
    },
    "properties": {
      "title": "Porto di Piombino",
      "description": "Posti Totali: <br><br>Posti Transito: ",
      "marker-color": "#fc4353",
      "marker-size": "large",
      "marker-symbol": "monument"
    },
    "id": 55
  },
  {
    "type": "Feature",
    "geometry": {
      "type": "Point",
      "coordinates": [
        10.329809188843,
        42.813410660584
      ]
    },
    "properties": {
      "title": "Porto di Portoferraio I. d'Elba",
      "description": "Posti Totali: 152<br><br>Posti Transito: 15",
      "marker-color": "#fc4353",
      "marker-size": "large",
      "marker-symbol": "monument"
    },
    "id": 56
  },
  {
    "type": "Feature",
    "geometry": {
      "type": "Point",
      "coordinates": [
        10.31601190567,
        42.80944387143
      ]
    },
    "properties": {
      "title": "Porto di Esaom Cesa I. d'Elba",
      "description": "Posti Totali: <br><br>Posti Transito: ",
      "marker-color": "#fc4353",
      "marker-size": "large",
      "marker-symbol": "monument"
    },
    "id": 57
  },
  {
    "type": "Feature",
    "geometry": {
      "type": "Point",
      "coordinates": [
        10.357768535614,
        42.800061087856
      ]
    },
    "properties": {
      "title": "Porto di Magazzini I. d'Elba",
      "description": "Posti Totali: <br><br>Posti Transito: ",
      "marker-color": "#fc4353",
      "marker-size": "large",
      "marker-symbol": "monument"
    },
    "id": 58
  },
  {
    "type": "Feature",
    "geometry": {
      "type": "Point",
      "coordinates": [
        10.421991348267,
        42.861810167189
      ]
    },
    "properties": {
      "title": "Porto di Cavo I. d'Elba",
      "description": "Posti Totali: <br><br>Posti Transito: ",
      "marker-color": "#fc4353",
      "marker-size": "large",
      "marker-symbol": "monument"
    },
    "id": 59
  },
  {
    "type": "Feature",
    "geometry": {
      "type": "Point",
      "coordinates": [
        10.429716110229,
        42.815362479313
      ]
    },
    "properties": {
      "title": "Porto di Rio Marina I d'Elba",
      "description": "Posti Totali: 100<br><br>Posti Transito: 15",
      "marker-color": "#fc4353",
      "marker-size": "large",
      "marker-symbol": "monument"
    },
    "id": 60
  },
  {
    "type": "Feature",
    "geometry": {
      "type": "Point",
      "coordinates": [
        10.397272109985,
        42.764091070245
      ]
    },
    "properties": {
      "title": "Porto di Porto Azzurro I'Elba",
      "description": "Posti Totali: 222<br><br>Posti Transito: ",
      "marker-color": "#fc4353",
      "marker-size": "large",
      "marker-symbol": "monument"
    },
    "id": 61
  },
  {
    "type": "Feature",
    "geometry": {
      "type": "Point",
      "coordinates": [
        10.196084976196,
        42.808688263698
      ]
    },
    "properties": {
      "title": "Porto di Marciana Marina I d'Elba",
      "description": "Posti Totali: 500<br><br>Posti Transito: ",
      "marker-color": "#fc4353",
      "marker-size": "large",
      "marker-symbol": "monument"
    },
    "id": 62
  },
  {
    "type": "Feature",
    "geometry": {
      "type": "Point",
      "coordinates": [
        10.78239440918,
        42.885272476815
      ]
    },
    "properties": {
      "title": "Porto di Scarlino - Etrusca Marina",
      "description": "Posti Totali: 566<br><br>Posti Transito: ",
      "marker-color": "#fc4353",
      "marker-size": "large",
      "marker-symbol": "monument"
    },
    "id": 63
  },
  {
    "type": "Feature",
    "geometry": {
      "type": "Point",
      "coordinates": [
        10.734715461731,
        42.805319400248
      ]
    },
    "properties": {
      "title": "Porto di Punta Ala",
      "description": "Posti Totali: 893<br><br>Posti Transito: 90",
      "marker-color": "#fc4353",
      "marker-size": "large",
      "marker-symbol": "monument"
    },
    "id": 64
  },
  {
    "type": "Feature",
    "geometry": {
      "type": "Point",
      "coordinates": [
        10.878825187683,
        42.760625254127
      ]
    },
    "properties": {
      "title": "Porto di Castiglione delle Pescaia",
      "description": "Posti Totali: 350<br><br>Posti Transito: 10",
      "marker-color": "#fc4353",
      "marker-size": "large",
      "marker-symbol": "monument"
    },
    "id": 65
  },
  {
    "type": "Feature",
    "geometry": {
      "type": "Point",
      "coordinates": [
        10.982809066772,
        42.71293485654
      ]
    },
    "properties": {
      "title": "Porto di Marina di San Rocco - Grosseto",
      "description": "Posti Totali: 561<br><br>Posti Transito: ",
      "marker-color": "#fc4353",
      "marker-size": "large",
      "marker-symbol": "monument"
    },
    "id": 66
  },
  {
    "type": "Feature",
    "geometry": {
      "type": "Point",
      "coordinates": [
        11.135716438293,
        42.555008691026
      ]
    },
    "properties": {
      "title": "Porto di Talamone",
      "description": "Posti Totali: <br><br>Posti Transito: ",
      "marker-color": "#fc4353",
      "marker-size": "large",
      "marker-symbol": "monument"
    },
    "id": 67
  },
  {
    "type": "Feature",
    "geometry": {
      "type": "Point",
      "coordinates": [
        11.209144592285,
        42.401847570402
      ]
    },
    "properties": {
      "title": "Porto di Cala Galera",
      "description": "Posti Totali: 700<br><br>Posti Transito: 80",
      "marker-color": "#fc4353",
      "marker-size": "large",
      "marker-symbol": "monument"
    },
    "id": 68
  },
  {
    "type": "Feature",
    "geometry": {
      "type": "Point",
      "coordinates": [
        11.208457946777,
        42.392213030676
      ]
    },
    "properties": {
      "title": "Porto di Porto Ercole",
      "description": "Posti Totali: 825<br><br>Posti Transito: 2",
      "marker-color": "#fc4353",
      "marker-size": "large",
      "marker-symbol": "monument"
    },
    "id": 69
  },
  {
    "type": "Feature",
    "geometry": {
      "type": "Point",
      "coordinates": [
        11.123313903809,
        42.436380305537
      ]
    },
    "properties": {
      "title": "Porto di Marina di Santo Stefano",
      "description": "Posti Totali: 130<br><br>Posti Transito: ",
      "marker-color": "#fc4353",
      "marker-size": "large",
      "marker-symbol": "monument"
    },
    "id": 70
  },
  {
    "type": "Feature",
    "geometry": {
      "type": "Point",
      "coordinates": [
        10.920839309692,
        42.360256341879
      ]
    },
    "properties": {
      "title": "Porto di Giglio Porto I. del Giglio",
      "description": "Posti Totali: 196<br><br>Posti Transito: 20",
      "marker-color": "#fc4353",
      "marker-size": "large",
      "marker-symbol": "monument"
    },
    "id": 71
  },
  {
    "type": "Feature",
    "geometry": {
      "type": "Point",
      "coordinates": [
        10.881314277649,
        42.36843728091
      ]
    },
    "properties": {
      "title": "Porto di Campese I. del Giglio",
      "description": "Posti Totali: <br><br>Posti Transito: ",
      "marker-color": "#fc4353",
      "marker-size": "large",
      "marker-symbol": "monument"
    },
    "id": 72
  },
  {
    "type": "Feature",
    "geometry": {
      "type": "Point",
      "coordinates": [
        9.8392868041992,
        43.050450565008
      ]
    },
    "properties": {
      "title": "Porto di Capraia",
      "description": "Posti Totali: 60<br><br>Posti Transito: ",
      "marker-color": "#fc4353",
      "marker-size": "large",
      "marker-symbol": "monument"
    },
    "id": 73
  },
  {
    "type": "Feature",
    "geometry": {
      "type": "Point",
      "coordinates": [
        11.771893501282,
        42.102712121059
      ]
    },
    "properties": {
      "title": "Porto di Civitavecchia",
      "description": "Posti Totali: <br><br>Posti Transito: ",
      "marker-color": "#fc4353",
      "marker-size": "large",
      "marker-symbol": "monument"
    },
    "id": 74
  },
  {
    "type": "Feature",
    "geometry": {
      "type": "Point",
      "coordinates": [
        11.812062263489,
        42.06347213745
      ]
    },
    "properties": {
      "title": "Porto di Riva di Traiano",
      "description": "Posti Totali: <br><br>Posti Transito: ",
      "marker-color": "#fc4353",
      "marker-size": "large",
      "marker-symbol": "monument"
    },
    "id": 75
  },
  {
    "type": "Feature",
    "geometry": {
      "type": "Point",
      "coordinates": [
        11.871886253357,
        42.035301222106
      ]
    },
    "properties": {
      "title": "Porto di Santa Marinella - Porto Odescalchi",
      "description": "Posti Totali: <br><br>Posti Transito: ",
      "marker-color": "#fc4353",
      "marker-size": "large",
      "marker-symbol": "monument"
    },
    "id": 76
  },
  {
    "type": "Feature",
    "geometry": {
      "type": "Point",
      "coordinates": [
        11.941237449646,
        42.02506864632
      ]
    },
    "properties": {
      "title": "Porto di Santa Severa",
      "description": "Posti Totali: <br><br>Posti Transito: ",
      "marker-color": "#fc4353",
      "marker-size": "large",
      "marker-symbol": "monument"
    },
    "id": 77
  },
  {
    "type": "Feature",
    "geometry": {
      "type": "Point",
      "coordinates": [
        12.225637435913,
        41.769903370493
      ]
    },
    "properties": {
      "title": "Porto di Darsena Traiano",
      "description": "Posti Totali: <br><br>Posti Transito: ",
      "marker-color": "#fc4353",
      "marker-size": "large",
      "marker-symbol": "monument"
    },
    "id": 78
  },
  {
    "type": "Feature",
    "geometry": {
      "type": "Point",
      "coordinates": [
        12.252759933472,
        41.746085459735
      ]
    },
    "properties": {
      "title": "Porto di Fiumicino Isola Sacra- Porto Romano",
      "description": "Posti Totali: <br><br>Posti Transito: ",
      "marker-color": "#fc4353",
      "marker-size": "large",
      "marker-symbol": "monument"
    },
    "id": 79
  },
  {
    "type": "Feature",
    "geometry": {
      "type": "Point",
      "coordinates": [
        12.246065139771,
        41.737567771276
      ]
    },
    "properties": {
      "title": "Porto di Ostia Porto Turistico di Roma",
      "description": "Posti Totali: <br><br>Posti Transito: ",
      "marker-color": "#fc4353",
      "marker-size": "large",
      "marker-symbol": "monument"
    },
    "id": 80
  },
  {
    "type": "Feature",
    "geometry": {
      "type": "Point",
      "coordinates": [
        12.632732391357,
        41.445814633982
      ]
    },
    "properties": {
      "title": "Porto di Anzio",
      "description": "Posti Totali: <br><br>Posti Transito: ",
      "marker-color": "#fc4353",
      "marker-size": "large",
      "marker-symbol": "monument"
    },
    "id": 81
  },
  {
    "type": "Feature",
    "geometry": {
      "type": "Point",
      "coordinates": [
        12.661228179932,
        41.454821208679
      ]
    },
    "properties": {
      "title": "Porto di Marina di Nettuno",
      "description": "Posti Totali: <br><br>Posti Transito: ",
      "marker-color": "#fc4353",
      "marker-size": "large",
      "marker-symbol": "monument"
    },
    "id": 82
  },
  {
    "type": "Feature",
    "geometry": {
      "type": "Point",
      "coordinates": [
        13.09398651123,
        41.225537757859
      ]
    },
    "properties": {
      "title": "Porto di San Felice Circeo",
      "description": "Posti Totali: <br><br>Posti Transito: ",
      "marker-color": "#fc4353",
      "marker-size": "large",
      "marker-symbol": "monument"
    },
    "id": 83
  },
  {
    "type": "Feature",
    "geometry": {
      "type": "Point",
      "coordinates": [
        13.257622718811,
        41.284449985176
      ]
    },
    "properties": {
      "title": "Porto di Terracina",
      "description": "Posti Totali: <br><br>Posti Transito: ",
      "marker-color": "#fc4353",
      "marker-size": "large",
      "marker-symbol": "monument"
    },
    "id": 84
  },
  {
    "type": "Feature",
    "geometry": {
      "type": "Point",
      "coordinates": [
        13.434820175171,
        41.254500434635
      ]
    },
    "properties": {
      "title": "Porto di Sperlonga",
      "description": "Posti Totali: <br><br>Posti Transito: ",
      "marker-color": "#fc4353",
      "marker-size": "large",
      "marker-symbol": "monument"
    },
    "id": 85
  },
  {
    "type": "Feature",
    "geometry": {
      "type": "Point",
      "coordinates": [
        13.588242530823,
        41.209994274427
      ]
    },
    "properties": {
      "title": "Porto di Gaeta Santa Maria",
      "description": "Posti Totali: <br><br>Posti Transito: ",
      "marker-color": "#fc4353",
      "marker-size": "large",
      "marker-symbol": "monument"
    },
    "id": 86
  },
  {
    "type": "Feature",
    "geometry": {
      "type": "Point",
      "coordinates": [
        13.573007583618,
        41.215498671755
      ]
    },
    "properties": {
      "title": "Porto di Gaeta Flavio Gioia",
      "description": "Posti Totali: <br><br>Posti Transito: ",
      "marker-color": "#fc4353",
      "marker-size": "large",
      "marker-symbol": "monument"
    },
    "id": 87
  },
  {
    "type": "Feature",
    "geometry": {
      "type": "Point",
      "coordinates": [
        13.598735332489,
        41.250902984158
      ]
    },
    "properties": {
      "title": "Porto di Formia Caposele",
      "description": "Posti Totali: <br><br>Posti Transito: ",
      "marker-color": "#fc4353",
      "marker-size": "large",
      "marker-symbol": "monument"
    },
    "id": 88
  },
  {
    "type": "Feature",
    "geometry": {
      "type": "Point",
      "coordinates": [
        13.610665798187,
        41.25443590812
      ]
    },
    "properties": {
      "title": "Porto di Formia Porto Nuovo",
      "description": "Posti Totali: <br><br>Posti Transito: ",
      "marker-color": "#fc4353",
      "marker-size": "large",
      "marker-symbol": "monument"
    },
    "id": 89
  },
  {
    "type": "Feature",
    "geometry": {
      "type": "Point",
      "coordinates": [
        13.700551986694,
        41.252064514487
      ]
    },
    "properties": {
      "title": "Porto di Scauri",
      "description": "Posti Totali: <br><br>Posti Transito: ",
      "marker-color": "#fc4353",
      "marker-size": "large",
      "marker-symbol": "monument"
    },
    "id": 90
  },
  {
    "type": "Feature",
    "geometry": {
      "type": "Point",
      "coordinates": [
        13.976497650146,
        40.974584502023
      ]
    },
    "properties": {
      "title": "Porto di Darsena San Bartolomeo",
      "description": "Posti Totali: 200<br><br>Posti Transito: ",
      "marker-color": "#fc4353",
      "marker-size": "large",
      "marker-symbol": "monument"
    },
    "id": 91
  },
  {
    "type": "Feature",
    "geometry": {
      "type": "Point",
      "coordinates": [
        14.04194355011,
        40.792304023601
      ]
    },
    "properties": {
      "title": "Porto di Acquamorta",
      "description": "Posti Totali: <br><br>Posti Transito: ",
      "marker-color": "#fc4353",
      "marker-size": "large",
      "marker-symbol": "monument"
    },
    "id": 92
  },
  {
    "type": "Feature",
    "geometry": {
      "type": "Point",
      "coordinates": [
        14.116702079773,
        40.824445559459
      ]
    },
    "properties": {
      "title": "Porto di Marina di Maglietta",
      "description": "Posti Totali: 150<br><br>Posti Transito: ",
      "marker-color": "#fc4353",
      "marker-size": "large",
      "marker-symbol": "monument"
    },
    "id": 93
  },
  {
    "type": "Feature",
    "geometry": {
      "type": "Point",
      "coordinates": [
        14.116787910461,
        40.826507673152
      ]
    },
    "properties": {
      "title": "Porto di Pozzuoli",
      "description": "Posti Totali: <br><br>Posti Transito: ",
      "marker-color": "#fc4353",
      "marker-size": "large",
      "marker-symbol": "monument"
    },
    "id": 94
  },
  {
    "type": "Feature",
    "geometry": {
      "type": "Point",
      "coordinates": [
        14.169251918793,
        40.799159158779
      ]
    },
    "properties": {
      "title": "Porto di Nisida",
      "description": "Posti Totali: 400<br><br>Posti Transito: ",
      "marker-color": "#fc4353",
      "marker-size": "large",
      "marker-symbol": "monument"
    },
    "id": 95
  },
  {
    "type": "Feature",
    "geometry": {
      "type": "Point",
      "coordinates": [
        14.217853546143,
        40.822058623391
      ]
    },
    "properties": {
      "title": "Porto di Posillipo Napoli",
      "description": "Posti Totali: <br><br>Posti Transito: ",
      "marker-color": "#fc4353",
      "marker-size": "large",
      "marker-symbol": "monument"
    },
    "id": 96
  },
  {
    "type": "Feature",
    "geometry": {
      "type": "Point",
      "coordinates": [
        14.222574234009,
        40.826783699253
      ]
    },
    "properties": {
      "title": "Porto di Mergellina Napoli",
      "description": "Posti Totali: <br><br>Posti Transito: ",
      "marker-color": "#fc4353",
      "marker-size": "large",
      "marker-symbol": "monument"
    },
    "id": 97
  },
  {
    "type": "Feature",
    "geometry": {
      "type": "Point",
      "coordinates": [
        14.248988628387,
        40.828861976532
      ]
    },
    "properties": {
      "title": "Porto di Santa Lucia Napoli",
      "description": "Posti Totali: 200<br><br>Posti Transito: ",
      "marker-color": "#fc4353",
      "marker-size": "large",
      "marker-symbol": "monument"
    },
    "id": 98
  },
  {
    "type": "Feature",
    "geometry": {
      "type": "Point",
      "coordinates": [
        14.253001213074,
        40.834171029767
      ]
    },
    "properties": {
      "title": "Porto di Molosiglio Napoli",
      "description": "Posti Totali: 150<br><br>Posti Transito: ",
      "marker-color": "#fc4353",
      "marker-size": "large",
      "marker-symbol": "monument"
    },
    "id": 99
  },
  {
    "type": "Feature",
    "geometry": {
      "type": "Point",
      "coordinates": [
        14.33447599411,
        40.809944004657
      ]
    },
    "properties": {
      "title": "Porto di Portici",
      "description": "Posti Totali: 20<br><br>Posti Transito: ",
      "marker-color": "#fc4353",
      "marker-size": "large",
      "marker-symbol": "monument"
    },
    "id": 100
  },
  {
    "type": "Feature",
    "geometry": {
      "type": "Point",
      "coordinates": [
        14.267807006836,
        40.837141965781
      ]
    },
    "properties": {
      "title": "Porto di Napoli Porto",
      "description": "Posti Totali: <br><br>Posti Transito: ",
      "marker-color": "#fc4353",
      "marker-size": "large",
      "marker-symbol": "monument"
    },
    "id": 101
  },
  {
    "type": "Feature",
    "geometry": {
      "type": "Point",
      "coordinates": [
        14.36110496521,
        40.786033066844
      ]
    },
    "properties": {
      "title": "Porto di Torre del Greco",
      "description": "Posti Totali: 500<br><br>Posti Transito: ",
      "marker-color": "#fc4353",
      "marker-size": "large",
      "marker-symbol": "monument"
    },
    "id": 102
  },
  {
    "type": "Feature",
    "geometry": {
      "type": "Point",
      "coordinates": [
        14.445841312408,
        40.751580985142
      ]
    },
    "properties": {
      "title": "Porto di Torre Annunziata",
      "description": "Posti Totali: 300<br><br>Posti Transito: ",
      "marker-color": "#fc4353",
      "marker-size": "large",
      "marker-symbol": "monument"
    },
    "id": 103
  },
  {
    "type": "Feature",
    "geometry": {
      "type": "Point",
      "coordinates": [
        14.473006725311,
        40.720575103653
      ]
    },
    "properties": {
      "title": "Porto di Marina di Stabia",
      "description": "Posti Totali: 870<br><br>Posti Transito: ",
      "marker-color": "#fc4353",
      "marker-size": "large",
      "marker-symbol": "monument"
    },
    "id": 104
  },
  {
    "type": "Feature",
    "geometry": {
      "type": "Point",
      "coordinates": [
        14.473521709442,
        40.694419429408
      ]
    },
    "properties": {
      "title": "Porto di Castellammare di Stabia - Porto Davide",
      "description": "Posti Totali: 400<br><br>Posti Transito: ",
      "marker-color": "#fc4353",
      "marker-size": "large",
      "marker-symbol": "monument"
    },
    "id": 105
  },
  {
    "type": "Feature",
    "geometry": {
      "type": "Point",
      "coordinates": [
        14.428975582123,
        40.665942315083
      ]
    },
    "properties": {
      "title": "Porto di Marina di Vico Equense",
      "description": "Posti Totali: <br><br>Posti Transito: ",
      "marker-color": "#fc4353",
      "marker-size": "large",
      "marker-symbol": "monument"
    },
    "id": 106
  },
  {
    "type": "Feature",
    "geometry": {
      "type": "Point",
      "coordinates": [
        14.418246746063,
        40.660245432401
      ]
    },
    "properties": {
      "title": "Porto di Marina di Equa",
      "description": "Posti Totali: <br><br>Posti Transito: ",
      "marker-color": "#fc4353",
      "marker-size": "large",
      "marker-symbol": "monument"
    },
    "id": 107
  },
  {
    "type": "Feature",
    "geometry": {
      "type": "Point",
      "coordinates": [
        14.37700510025,
        40.629457573333
      ]
    },
    "properties": {
      "title": "Porto di Sorrento Marina Piccola",
      "description": "Posti Totali: 250<br><br>Posti Transito: ",
      "marker-color": "#fc4353",
      "marker-size": "large",
      "marker-symbol": "monument"
    },
    "id": 108
  },
  {
    "type": "Feature",
    "geometry": {
      "type": "Point",
      "coordinates": [
        14.365482330322,
        40.627633626944
      ]
    },
    "properties": {
      "title": "Porto di Sorrento Marina Grande",
      "description": "Posti Totali: 20<br><br>Posti Transito: ",
      "marker-color": "#fc4353",
      "marker-size": "large",
      "marker-symbol": "monument"
    },
    "id": 109
  },
  {
    "type": "Feature",
    "geometry": {
      "type": "Point",
      "coordinates": [
        14.33376789093,
        40.608495472423
      ]
    },
    "properties": {
      "title": "Porto di Marina della Lobra",
      "description": "Posti Totali: 100<br><br>Posti Transito: ",
      "marker-color": "#fc4353",
      "marker-size": "large",
      "marker-symbol": "monument"
    },
    "id": 110
  },
  {
    "type": "Feature",
    "geometry": {
      "type": "Point",
      "coordinates": [
        14.032030105591,
        40.766826609363
      ]
    },
    "properties": {
      "title": "Porto di Marina di Procida I. di Procida",
      "description": "Posti Totali: 491<br><br>Posti Transito: ",
      "marker-color": "#fc4353",
      "marker-size": "large",
      "marker-symbol": "monument"
    },
    "id": 111
  },
  {
    "type": "Feature",
    "geometry": {
      "type": "Point",
      "coordinates": [
        14.005422592163,
        40.748037258303
      ]
    },
    "properties": {
      "title": "Porto di Chiaiolella I. di Procida",
      "description": "Posti Totali: 216<br><br>Posti Transito: ",
      "marker-color": "#fc4353",
      "marker-size": "large",
      "marker-symbol": "monument"
    },
    "id": 112
  },
  {
    "type": "Feature",
    "geometry": {
      "type": "Point",
      "coordinates": [
        13.940448760986,
        40.744265745242
      ]
    },
    "properties": {
      "title": "Porto di Porto D'Ischia I. d'Ischia",
      "description": "Posti Totali: 200<br><br>Posti Transito: 3",
      "marker-color": "#fc4353",
      "marker-size": "large",
      "marker-symbol": "monument"
    },
    "id": 113
  },
  {
    "type": "Feature",
    "geometry": {
      "type": "Point",
      "coordinates": [
        13.908090591431,
        40.749922934626
      ]
    },
    "properties": {
      "title": "Porto di Casamicciola I. d'Ischia",
      "description": "Posti Totali: 275<br><br>Posti Transito: 10",
      "marker-color": "#fc4353",
      "marker-size": "large",
      "marker-symbol": "monument"
    },
    "id": 114
  },
  {
    "type": "Feature",
    "geometry": {
      "type": "Point",
      "coordinates": [
        13.859167098999,
        40.739323438859
      ]
    },
    "properties": {
      "title": "Porto di Forio I. d'Ischia",
      "description": "Posti Totali: 40<br><br>Posti Transito: 8",
      "marker-color": "#fc4353",
      "marker-size": "large",
      "marker-symbol": "monument"
    },
    "id": 115
  },
  {
    "type": "Feature",
    "geometry": {
      "type": "Point",
      "coordinates": [
        13.893799781799,
        40.695834831362
      ]
    },
    "properties": {
      "title": "Porto di Sant'Angelo I. d'Ischia",
      "description": "Posti Totali: 100<br><br>Posti Transito: 2",
      "marker-color": "#fc4353",
      "marker-size": "large",
      "marker-symbol": "monument"
    },
    "id": 116
  },
  {
    "type": "Feature",
    "geometry": {
      "type": "Point",
      "coordinates": [
        14.24222946167,
        40.556200020635
      ]
    },
    "properties": {
      "title": "Porto di Marina Grande I. di Capri",
      "description": "Posti Totali: 300<br><br>Posti Transito: 30",
      "marker-color": "#fc4353",
      "marker-size": "large",
      "marker-symbol": "monument"
    },
    "id": 117
  },
  {
    "type": "Feature",
    "geometry": {
      "type": "Point",
      "coordinates": [
        14.600186347961,
        40.632291105516
      ]
    },
    "properties": {
      "title": "Porto di Amalfi",
      "description": "Posti Totali: 300<br><br>Posti Transito: 3",
      "marker-color": "#fc4353",
      "marker-size": "large",
      "marker-symbol": "monument"
    },
    "id": 118
  },
  {
    "type": "Feature",
    "geometry": {
      "type": "Point",
      "coordinates": [
        14.634647369385,
        40.64844319902
      ]
    },
    "properties": {
      "title": "Porto di Maiori",
      "description": "Posti Totali: 110<br><br>Posti Transito: 5",
      "marker-color": "#fc4353",
      "marker-size": "large",
      "marker-symbol": "monument"
    },
    "id": 119
  },
  {
    "type": "Feature",
    "geometry": {
      "type": "Point",
      "coordinates": [
        14.702153205872,
        40.644926543772
      ]
    },
    "properties": {
      "title": "Porto di Cetara",
      "description": "Posti Totali: 50<br><br>Posti Transito: ",
      "marker-color": "#fc4353",
      "marker-size": "large",
      "marker-symbol": "monument"
    },
    "id": 120
  },
  {
    "type": "Feature",
    "geometry": {
      "type": "Point",
      "coordinates": [
        14.747729301453,
        40.671199292229
      ]
    },
    "properties": {
      "title": "Porto di Salerno",
      "description": "Posti Totali: 1175<br><br>Posti Transito: 117",
      "marker-color": "#fc4353",
      "marker-size": "large",
      "marker-symbol": "monument"
    },
    "id": 121
  },
  {
    "type": "Feature",
    "geometry": {
      "type": "Point",
      "coordinates": [
        14.767642021179,
        40.672794206448
      ]
    },
    "properties": {
      "title": "Porto di Masuccio Salernitano",
      "description": "Posti Totali: 414<br><br>Posti Transito: 41",
      "marker-color": "#fc4353",
      "marker-size": "large",
      "marker-symbol": "monument"
    },
    "id": 122
  },
  {
    "type": "Feature",
    "geometry": {
      "type": "Point",
      "coordinates": [
        14.983463287354,
        40.352235006021
      ]
    },
    "properties": {
      "title": "Porto di Agropoli",
      "description": "Posti Totali: 1000<br><br>Posti Transito: 50",
      "marker-color": "#fc4353",
      "marker-size": "large",
      "marker-symbol": "monument"
    },
    "id": 123
  },
  {
    "type": "Feature",
    "geometry": {
      "type": "Point",
      "coordinates": [
        14.934968948364,
        40.268720575627
      ]
    },
    "properties": {
      "title": "Porto di San Marco di Castellabate",
      "description": "Posti Totali: 300<br><br>Posti Transito: 20",
      "marker-color": "#fc4353",
      "marker-size": "large",
      "marker-symbol": "monument"
    },
    "id": 124
  },
  {
    "type": "Feature",
    "geometry": {
      "type": "Point",
      "coordinates": [
        14.986209869385,
        40.219388143626
      ]
    },
    "properties": {
      "title": "Porto di Agnone San Nicola",
      "description": "Posti Totali: <br><br>Posti Transito: ",
      "marker-color": "#fc4353",
      "marker-size": "large",
      "marker-symbol": "monument"
    },
    "id": 125
  },
  {
    "type": "Feature",
    "geometry": {
      "type": "Point",
      "coordinates": [
        15.026807785034,
        40.177102697065
      ]
    },
    "properties": {
      "title": "Porto di Acciaroli",
      "description": "Posti Totali: 300<br><br>Posti Transito: 40",
      "marker-color": "#fc4353",
      "marker-size": "large",
      "marker-symbol": "monument"
    },
    "id": 126
  },
  {
    "type": "Feature",
    "geometry": {
      "type": "Point",
      "coordinates": [
        15.120363235474,
        40.175200871483
      ]
    },
    "properties": {
      "title": "Porto di Marina di Casal Velino",
      "description": "Posti Totali: 150<br><br>Posti Transito: ",
      "marker-color": "#fc4353",
      "marker-size": "large",
      "marker-symbol": "monument"
    },
    "id": 127
  },
  {
    "type": "Feature",
    "geometry": {
      "type": "Point",
      "coordinates": [
        15.22481918335,
        40.104205014562
      ]
    },
    "properties": {
      "title": "Porto di Marina di Pisciotta",
      "description": "Posti Totali: 100<br><br>Posti Transito: ",
      "marker-color": "#fc4353",
      "marker-size": "large",
      "marker-symbol": "monument"
    },
    "id": 128
  },
  {
    "type": "Feature",
    "geometry": {
      "type": "Point",
      "coordinates": [
        15.375967025757,
        39.999281717565
      ]
    },
    "properties": {
      "title": "Porto di Marina di Camerota",
      "description": "Posti Totali: 300<br><br>Posti Transito: ",
      "marker-color": "#fc4353",
      "marker-size": "large",
      "marker-symbol": "monument"
    },
    "id": 129
  },
  {
    "type": "Feature",
    "geometry": {
      "type": "Point",
      "coordinates": [
        15.492525100708,
        40.052256306402
      ]
    },
    "properties": {
      "title": "Porto di Porto Scario",
      "description": "Posti Totali: 160<br><br>Posti Transito: ",
      "marker-color": "#fc4353",
      "marker-size": "large",
      "marker-symbol": "monument"
    },
    "id": 130
  },
  {
    "type": "Feature",
    "geometry": {
      "type": "Point",
      "coordinates": [
        15.523681640625,
        40.071339419012
      ]
    },
    "properties": {
      "title": "Porto di Marina di Policastro",
      "description": "Posti Totali: 200<br><br>Posti Transito: 30",
      "marker-color": "#fc4353",
      "marker-size": "large",
      "marker-symbol": "monument"
    },
    "id": 131
  },
  {
    "type": "Feature",
    "geometry": {
      "type": "Point",
      "coordinates": [
        15.627279281616,
        40.06483665227
      ]
    },
    "properties": {
      "title": "Porto di Sapri",
      "description": "Posti Totali: 50<br><br>Posti Transito: ",
      "marker-color": "#fc4353",
      "marker-size": "large",
      "marker-symbol": "monument"
    },
    "id": 132
  },
  {
    "type": "Feature",
    "geometry": {
      "type": "Point",
      "coordinates": [
        15.709590911865,
        39.987708593829
      ]
    },
    "properties": {
      "title": "Porto di Maratea",
      "description": "Posti Totali: 600<br><br>Posti Transito: 50",
      "marker-color": "#fc4353",
      "marker-size": "large",
      "marker-symbol": "monument"
    },
    "id": 133
  },
  {
    "type": "Feature",
    "geometry": {
      "type": "Point",
      "coordinates": [
        15.918674468994,
        39.527480478561
      ]
    },
    "properties": {
      "title": "Porto di Cetraro",
      "description": "Posti Totali: 350<br><br>Posti Transito: 15",
      "marker-color": "#fc4353",
      "marker-size": "large",
      "marker-symbol": "monument"
    },
    "id": 134
  },
  {
    "type": "Feature",
    "geometry": {
      "type": "Point",
      "coordinates": [
        16.127328872681,
        38.718800240702
      ]
    },
    "properties": {
      "title": "Porto di Vibo Valentia Marina",
      "description": "Posti Totali: 450<br><br>Posti Transito: ",
      "marker-color": "#fc4353",
      "marker-size": "large",
      "marker-symbol": "monument"
    },
    "id": 135
  },
  {
    "type": "Feature",
    "geometry": {
      "type": "Point",
      "coordinates": [
        15.903868675232,
        38.681054224442
      ]
    },
    "properties": {
      "title": "Porto di Tropea",
      "description": "Posti Totali: 620<br><br>Posti Transito: ",
      "marker-color": "#fc4353",
      "marker-size": "large",
      "marker-symbol": "monument"
    },
    "id": 136
  },
  {
    "type": "Feature",
    "geometry": {
      "type": "Point",
      "coordinates": [
        15.898933410645,
        38.442967948614
      ]
    },
    "properties": {
      "title": "Porto di Gioia Tauro",
      "description": "Posti Totali: 80<br><br>Posti Transito: 1",
      "marker-color": "#fc4353",
      "marker-size": "large",
      "marker-symbol": "monument"
    },
    "id": 137
  },
  {
    "type": "Feature",
    "geometry": {
      "type": "Point",
      "coordinates": [
        15.814089775085,
        38.29906428475
      ]
    },
    "properties": {
      "title": "Porto di Bagnara Calabra",
      "description": "Posti Totali: <br><br>Posti Transito: ",
      "marker-color": "#fc4353",
      "marker-size": "large",
      "marker-symbol": "monument"
    },
    "id": 138
  },
  {
    "type": "Feature",
    "geometry": {
      "type": "Point",
      "coordinates": [
        15.632128715515,
        38.218087599051
      ]
    },
    "properties": {
      "title": "Porto di Villa San Giovanni",
      "description": "Posti Totali: <br><br>Posti Transito: ",
      "marker-color": "#fc4353",
      "marker-size": "large",
      "marker-symbol": "monument"
    },
    "id": 139
  },
  {
    "type": "Feature",
    "geometry": {
      "type": "Point",
      "coordinates": [
        15.650238990784,
        38.123618939873
      ]
    },
    "properties": {
      "title": "Porto di Reggio Calabria",
      "description": "Posti Totali: 47<br><br>Posti Transito: 10",
      "marker-color": "#fc4353",
      "marker-size": "large",
      "marker-symbol": "monument"
    },
    "id": 140
  },
  {
    "type": "Feature",
    "geometry": {
      "type": "Point",
      "coordinates": [
        15.734224319458,
        37.928153945307
      ]
    },
    "properties": {
      "title": "Porto di Saline Joniche",
      "description": "Posti Totali: <br><br>Posti Transito: ",
      "marker-color": "#fc4353",
      "marker-size": "large",
      "marker-symbol": "monument"
    },
    "id": 141
  },
  {
    "type": "Feature",
    "geometry": {
      "type": "Point",
      "coordinates": [
        16.434173583984,
        38.328191101078
      ]
    },
    "properties": {
      "title": "Porto di Roccella Ionica",
      "description": "Posti Totali: 447<br><br>Posti Transito: 39",
      "marker-color": "#fc4353",
      "marker-size": "large",
      "marker-symbol": "monument"
    },
    "id": 142
  },
  {
    "type": "Feature",
    "geometry": {
      "type": "Point",
      "coordinates": [
        16.632785797119,
        38.82626872588
      ]
    },
    "properties": {
      "title": "Porto di Marina di Catanzaro",
      "description": "Posti Totali: <br><br>Posti Transito: ",
      "marker-color": "#fc4353",
      "marker-size": "large",
      "marker-symbol": "monument"
    },
    "id": 143
  },
  {
    "type": "Feature",
    "geometry": {
      "type": "Point",
      "coordinates": [
        17.126998901367,
        39.088835048067
      ]
    },
    "properties": {
      "title": "Porto di Crotone",
      "description": "Posti Totali: 600<br><br>Posti Transito: 20",
      "marker-color": "#fc4353",
      "marker-size": "large",
      "marker-symbol": "monument"
    },
    "id": 144
  },
  {
    "type": "Feature",
    "geometry": {
      "type": "Point",
      "coordinates": [
        16.942205429077,
        39.505828763489
      ]
    },
    "properties": {
      "title": "Porto di Cariati",
      "description": "Posti Totali: <br><br>Posti Transito: ",
      "marker-color": "#fc4353",
      "marker-size": "large",
      "marker-symbol": "monument"
    },
    "id": 145
  },
  {
    "type": "Feature",
    "geometry": {
      "type": "Point",
      "coordinates": [
        16.523351669312,
        39.669076126375
      ]
    },
    "properties": {
      "title": "Porto di Corigliano Calabro",
      "description": "Posti Totali: <br><br>Posti Transito: ",
      "marker-color": "#fc4353",
      "marker-size": "large",
      "marker-symbol": "monument"
    },
    "id": 146
  },
  {
    "type": "Feature",
    "geometry": {
      "type": "Point",
      "coordinates": [
        16.515111923218,
        39.729105537658
      ]
    },
    "properties": {
      "title": "Porto di Marina Laghi di Sabari",
      "description": "Posti Totali: 205<br><br>Posti Transito: ",
      "marker-color": "#fc4353",
      "marker-size": "large",
      "marker-symbol": "monument"
    },
    "id": 147
  },
  {
    "type": "Feature",
    "geometry": {
      "type": "Point",
      "coordinates": [
        17.159957885742,
        40.501922104566
      ]
    },
    "properties": {
      "title": "Porto di Taranto",
      "description": "Posti Totali: 254<br><br>Posti Transito: ",
      "marker-color": "#fc4353",
      "marker-size": "large",
      "marker-symbol": "monument"
    },
    "id": 148
  },
  {
    "type": "Feature",
    "geometry": {
      "type": "Point",
      "coordinates": [
        17.563705444336,
        40.296941153403
      ]
    },
    "properties": {
      "title": "Porto di Campomarino Maruggio",
      "description": "Posti Totali: 300<br><br>Posti Transito: ",
      "marker-color": "#fc4353",
      "marker-size": "large",
      "marker-symbol": "monument"
    },
    "id": 149
  },
  {
    "type": "Feature",
    "geometry": {
      "type": "Point",
      "coordinates": [
        17.980670928955,
        40.058891660779
      ]
    },
    "properties": {
      "title": "Porto di Gallipoli Porto Gaio",
      "description": "Posti Totali: 200<br><br>Posti Transito: 8",
      "marker-color": "#fc4353",
      "marker-size": "large",
      "marker-symbol": "monument"
    },
    "id": 150
  },
  {
    "type": "Feature",
    "geometry": {
      "type": "Point",
      "coordinates": [
        17.974491119385,
        40.0574463911
      ]
    },
    "properties": {
      "title": "Porto di Gallipoli San Giorgio",
      "description": "Posti Totali: <br><br>Posti Transito: ",
      "marker-color": "#fc4353",
      "marker-size": "large",
      "marker-symbol": "monument"
    },
    "id": 151
  },
  {
    "type": "Feature",
    "geometry": {
      "type": "Point",
      "coordinates": [
        17.97981262207,
        40.054752852175
      ]
    },
    "properties": {
      "title": "Porto di Gallipoli Seno del Canneto",
      "description": "Posti Totali: <br><br>Posti Transito: ",
      "marker-color": "#fc4353",
      "marker-size": "large",
      "marker-symbol": "monument"
    },
    "id": 152
  },
  {
    "type": "Feature",
    "geometry": {
      "type": "Point",
      "coordinates": [
        18.115854263306,
        39.885833250591
      ]
    },
    "properties": {
      "title": "Porto di Torre San Giovanni d'Ugento",
      "description": "Posti Totali: <br><br>Posti Transito: ",
      "marker-color": "#fc4353",
      "marker-size": "large",
      "marker-symbol": "monument"
    },
    "id": 153
  },
  {
    "type": "Feature",
    "geometry": {
      "type": "Point",
      "coordinates": [
        18.275585174561,
        39.830686335335
      ]
    },
    "properties": {
      "title": "Porto di Torre Vado",
      "description": "Posti Totali: 100<br><br>Posti Transito: 10",
      "marker-color": "#fc4353",
      "marker-size": "large",
      "marker-symbol": "monument"
    },
    "id": 154
  },
  {
    "type": "Feature",
    "geometry": {
      "type": "Point",
      "coordinates": [
        18.360986709595,
        39.7962052558
      ]
    },
    "properties": {
      "title": "Porto di Santa Maria di Leuca",
      "description": "Posti Totali: 700<br><br>Posti Transito: ",
      "marker-color": "#fc4353",
      "marker-size": "large",
      "marker-symbol": "monument"
    },
    "id": 155
  },
  {
    "type": "Feature",
    "geometry": {
      "type": "Point",
      "coordinates": [
        18.396263122559,
        39.93310436673
      ]
    },
    "properties": {
      "title": "Porto di Tricase",
      "description": "Posti Totali: 200<br><br>Posti Transito: 10",
      "marker-color": "#fc4353",
      "marker-size": "large",
      "marker-symbol": "monument"
    },
    "id": 156
  },
  {
    "type": "Feature",
    "geometry": {
      "type": "Point",
      "coordinates": [
        18.426733016968,
        40.000793969532
      ]
    },
    "properties": {
      "title": "Porto di Castro Marina",
      "description": "Posti Totali: 160<br><br>Posti Transito: 5",
      "marker-color": "#fc4353",
      "marker-size": "large",
      "marker-symbol": "monument"
    },
    "id": 157
  },
  {
    "type": "Feature",
    "geometry": {
      "type": "Point",
      "coordinates": [
        18.491878509521,
        40.148635323758
      ]
    },
    "properties": {
      "title": "Porto di Otranto",
      "description": "Posti Totali: 390<br><br>Posti Transito: 10",
      "marker-color": "#fc4353",
      "marker-size": "large",
      "marker-symbol": "monument"
    },
    "id": 158
  },
  {
    "type": "Feature",
    "geometry": {
      "type": "Point",
      "coordinates": [
        18.406562805176,
        40.303618081237
      ]
    },
    "properties": {
      "title": "Porto di S. Foca di Melendugno",
      "description": "Posti Totali: 500<br><br>Posti Transito: 30",
      "marker-color": "#fc4353",
      "marker-size": "large",
      "marker-symbol": "monument"
    },
    "id": 159
  },
  {
    "type": "Feature",
    "geometry": {
      "type": "Point",
      "coordinates": [
        17.972431182861,
        40.654662015302
      ]
    },
    "properties": {
      "title": "Porto di Brindisi",
      "description": "Posti Totali: 642<br><br>Posti Transito: ",
      "marker-color": "#fc4353",
      "marker-size": "large",
      "marker-symbol": "monument"
    },
    "id": 160
  },
  {
    "type": "Feature",
    "geometry": {
      "type": "Point",
      "coordinates": [
        17.587738037109,
        40.791264320431
      ]
    },
    "properties": {
      "title": "Porto di Villanova di Ostuni",
      "description": "Posti Totali: 250<br><br>Posti Transito: ",
      "marker-color": "#fc4353",
      "marker-size": "large",
      "marker-symbol": "monument"
    },
    "id": 161
  },
  {
    "type": "Feature",
    "geometry": {
      "type": "Point",
      "coordinates": [
        17.410497665405,
        40.874454020615
      ]
    },
    "properties": {
      "title": "Porto di Savelletri",
      "description": "Posti Totali: 300<br><br>Posti Transito: ",
      "marker-color": "#fc4353",
      "marker-size": "large",
      "marker-symbol": "monument"
    },
    "id": 162
  },
  {
    "type": "Feature",
    "geometry": {
      "type": "Point",
      "coordinates": [
        17.303466796875,
        40.956437386709
      ]
    },
    "properties": {
      "title": "Porto di Monopoli",
      "description": "Posti Totali: <br><br>Posti Transito: ",
      "marker-color": "#fc4353",
      "marker-size": "large",
      "marker-symbol": "monument"
    },
    "id": 163
  },
  {
    "type": "Feature",
    "geometry": {
      "type": "Point",
      "coordinates": [
        17.201843261719,
        41.00542314454
      ]
    },
    "properties": {
      "title": "Porto di Polignano a Mare",
      "description": "Posti Totali: 110<br><br>Posti Transito: ",
      "marker-color": "#fc4353",
      "marker-size": "large",
      "marker-symbol": "monument"
    },
    "id": 164
  },
  {
    "type": "Feature",
    "geometry": {
      "type": "Point",
      "coordinates": [
        17.099103927612,
        41.059614932873
      ]
    },
    "properties": {
      "title": "Porto di Mola di Bari",
      "description": "Posti Totali: 110<br><br>Posti Transito: ",
      "marker-color": "#fc4353",
      "marker-size": "large",
      "marker-symbol": "monument"
    },
    "id": 165
  },
  {
    "type": "Feature",
    "geometry": {
      "type": "Point",
      "coordinates": [
        16.863842010498,
        41.139881695085
      ]
    },
    "properties": {
      "title": "Porto di Bari",
      "description": "Posti Totali: 230<br><br>Posti Transito: ",
      "marker-color": "#fc4353",
      "marker-size": "large",
      "marker-symbol": "monument"
    },
    "id": 166
  },
  {
    "type": "Feature",
    "geometry": {
      "type": "Point",
      "coordinates": [
        16.768827438354,
        41.160821573474
      ]
    },
    "properties": {
      "title": "Porto di Palese",
      "description": "Posti Totali: <br><br>Posti Transito: ",
      "marker-color": "#fc4353",
      "marker-size": "large",
      "marker-symbol": "monument"
    },
    "id": 167
  },
  {
    "type": "Feature",
    "geometry": {
      "type": "Point",
      "coordinates": [
        16.750288009644,
        41.164698594789
      ]
    },
    "properties": {
      "title": "Porto di Santo Spirito",
      "description": "Posti Totali: 230<br><br>Posti Transito: ",
      "marker-color": "#fc4353",
      "marker-size": "large",
      "marker-symbol": "monument"
    },
    "id": 168
  },
  {
    "type": "Feature",
    "geometry": {
      "type": "Point",
      "coordinates": [
        16.672954559326,
        41.190022822717
      ]
    },
    "properties": {
      "title": "Porto di Giovinazzo",
      "description": "Posti Totali: 5<br><br>Posti Transito: ",
      "marker-color": "#fc4353",
      "marker-size": "large",
      "marker-symbol": "monument"
    },
    "id": 169
  },
  {
    "type": "Feature",
    "geometry": {
      "type": "Point",
      "coordinates": [
        16.587982177734,
        41.210042702229
      ]
    },
    "properties": {
      "title": "Porto di Molfetta",
      "description": "Posti Totali: 200<br><br>Posti Transito: ",
      "marker-color": "#fc4353",
      "marker-size": "large",
      "marker-symbol": "monument"
    },
    "id": 170
  },
  {
    "type": "Feature",
    "geometry": {
      "type": "Point",
      "coordinates": [
        16.506700515747,
        41.245869447427
      ]
    },
    "properties": {
      "title": "Porto di Bisceglie",
      "description": "Posti Totali: 500<br><br>Posti Transito: ",
      "marker-color": "#fc4353",
      "marker-size": "large",
      "marker-symbol": "monument"
    },
    "id": 171
  },
  {
    "type": "Feature",
    "geometry": {
      "type": "Point",
      "coordinates": [
        16.42147064209,
        41.282773044496
      ]
    },
    "properties": {
      "title": "Porto di Trani",
      "description": "Posti Totali: 550<br><br>Posti Transito: 50",
      "marker-color": "#fc4353",
      "marker-size": "large",
      "marker-symbol": "monument"
    },
    "id": 172
  },
  {
    "type": "Feature",
    "geometry": {
      "type": "Point",
      "coordinates": [
        16.290578842163,
        41.327068501884
      ]
    },
    "properties": {
      "title": "Porto di Barletta",
      "description": "Posti Totali: 140<br><br>Posti Transito: ",
      "marker-color": "#fc4353",
      "marker-size": "large",
      "marker-symbol": "monument"
    },
    "id": 173
  },
  {
    "type": "Feature",
    "geometry": {
      "type": "Point",
      "coordinates": [
        16.133594512939,
        41.387434608217
      ]
    },
    "properties": {
      "title": "Porto di Margherita di Savoia",
      "description": "Posti Totali: 200<br><br>Posti Transito: ",
      "marker-color": "#fc4353",
      "marker-size": "large",
      "marker-symbol": "monument"
    },
    "id": 174
  },
  {
    "type": "Feature",
    "geometry": {
      "type": "Point",
      "coordinates": [
        15.920648574829,
        41.623847871876
      ]
    },
    "properties": {
      "title": "Porto di Manfredonia Porto Vecchio",
      "description": "Posti Totali: 365<br><br>Posti Transito: ",
      "marker-color": "#fc4353",
      "marker-size": "large",
      "marker-symbol": "monument"
    },
    "id": 175
  },
  {
    "type": "Feature",
    "geometry": {
      "type": "Point",
      "coordinates": [
        16.076774597168,
        41.710342020439
      ]
    },
    "properties": {
      "title": "Porto di Mattinata",
      "description": "Posti Totali: 220<br><br>Posti Transito: ",
      "marker-color": "#fc4353",
      "marker-size": "large",
      "marker-symbol": "monument"
    },
    "id": 176
  },
  {
    "type": "Feature",
    "geometry": {
      "type": "Point",
      "coordinates": [
        16.17582321167,
        41.887007299457
      ]
    },
    "properties": {
      "title": "Porto di Vieste",
      "description": "Posti Totali: 200<br><br>Posti Transito: ",
      "marker-color": "#fc4353",
      "marker-size": "large",
      "marker-symbol": "monument"
    },
    "id": 177
  }
]

